{
    "choruses": [
        {
            "id": "671bc0070b2b9c7a70caf334",
            "name": "Community Choir",
            "description": "Deserunt ex exercitation anim velit dolore qui amet occaecat.",
            "contactEmail": "hansonmatthews@example.com",
            "location": {
                "city": "Norfolk",
                "state": "VA"
            }
        },
        {
            "id": "671bc007117bf0b9518cbdf7",
            "name": "Barbershop Folks",
            "description": "Reprehenderit pariatur dolore in fugiat Lorem aliqua consectetur et dolore reprehenderit sunt aute.",
            "contactEmail": "tylerreese@example.com",
            "location": {
                "city": "Dallas",
                "state": "TX"
            }
        },
        {
            "id": "671bc007e5a5648e3d329b8c",
            "name": "Barbershop Folks",
            "description": "Ex consequat minim mollit dolor enim voluptate.",
            "contactEmail": "hooverreed@example.com",
            "location": {
                "city": "Charlotte",
                "state": "NC"
            }
        },
        {
            "id": "671bc0072a6c6413079e8ea7",
            "name": "Barbershop Folks",
            "description": "Quis aliquip nisi nostrud velit occaecat excepteur irure duis dolor ullamco commodo mollit enim aliqua.",
            "contactEmail": "fletcherflynn@example.com",
            "location": {
                "city": "Norfolk",
                "state": "VA"
            }
        },
        {
            "id": "671bc0070703e268ebeddee9",
            "name": "Community Choir",
            "description": "Qui elit et nulla nisi laborum qui anim quis consectetur velit.",
            "contactEmail": "solomononeil@example.com",
            "location": {
                "city": "Norfolk",
                "state": "VA"
            }
        },
        {
            "id": "671bc007702bddc66d1dfe17",
            "name": "City Symphonic Chorus",
            "description": "Cupidatat ad amet ad veniam eu nisi laborum minim anim laborum excepteur.",
            "contactEmail": "sandovalspencer@example.com",
            "location": {
                "city": "Dallas",
                "state": "TX"
            }
        },
        {
            "id": "671bc00714c8e6a0e50c9e4b",
            "name": "Barbershop Folks",
            "description": "Mollit ipsum sint cupidatat nulla id cupidatat esse culpa velit commodo id.",
            "contactEmail": "mablebowman@example.com",
            "location": {
                "city": "Madison",
                "state": "WI"
            }
        },
        {
            "id": "671bc007d5cf40ff0f27e530",
            "name": "Community Choir",
            "description": "Eu magna culpa ex proident commodo quis consectetur cupidatat nostrud aute.",
            "contactEmail": "pattihoover@example.com",
            "location": {
                "city": "Dallas",
                "state": "TX"
            }
        },
        {
            "id": "671bc007b5b61f944743d436",
            "name": "Barbershop Folks",
            "description": "Cillum reprehenderit veniam proident nulla sunt dolor minim laborum commodo labore occaecat ea nulla quis.",
            "contactEmail": "hillaryduffy@example.com",
            "location": {
                "city": "Charlotte",
                "state": "NC"
            }
        },
        {
            "id": "671bc007979f31938683f233",
            "name": "Barbershop Folks",
            "description": "Sit elit et adipisicing irure id laboris aliquip in sit nostrud.",
            "contactEmail": "cotehodges@example.com",
            "location": {
                "city": "New York",
                "state": "NY"
            }
        },
        {
            "id": "671bc007d39b568d7c6ac756",
            "name": "Chamber Singers",
            "description": "In dolor non non incididunt deserunt irure Lorem incididunt proident consequat.",
            "contactEmail": "kempfulton@example.com",
            "location": {
                "city": "Madison",
                "state": "WI"
            }
        },
        {
            "id": "671bc007af1f5198cf172ff5",
            "name": "Barbershop Folks",
            "description": "Laborum sint aliquip ipsum excepteur.",
            "contactEmail": "salazarwoodard@example.com",
            "location": {
                "city": "Madison",
                "state": "WI"
            }
        },
        {
            "id": "671bc00748433eeb5bebe232",
            "name": "Chamber Singers",
            "description": "Do consectetur ullamco reprehenderit id tempor duis.",
            "contactEmail": "yatescarter@example.com",
            "location": {
                "city": "Charlotte",
                "state": "NC"
            }
        },
        {
            "id": "671bc007e5f468b92c94d439",
            "name": "City Symphonic Chorus",
            "description": "Adipisicing anim sit irure mollit nisi pariatur.",
            "contactEmail": "rachelgarrett@example.com",
            "location": {
                "city": "New York",
                "state": "NY"
            }
        },
        {
            "id": "671bc0076b6aab087850dbef",
            "name": "Community Choir",
            "description": "Incididunt elit adipisicing aute cupidatat aliqua.",
            "contactEmail": "earlenehill@example.com",
            "location": {
                "city": "Dallas",
                "state": "TX"
            }
        },
        {
            "id": "671bc00737acd3572d3c6eac",
            "name": "Community Choir",
            "description": "Excepteur reprehenderit veniam eiusmod adipisicing nisi sint eiusmod excepteur sunt ad esse et nulla duis.",
            "contactEmail": "rondamcmillan@example.com",
            "location": {
                "city": "Charlotte",
                "state": "NC"
            }
        },
        {
            "id": "671bc007c84dac2ffad7d535",
            "name": "Community Choir",
            "description": "Est eiusmod sit sunt laboris ea dolor elit anim sint.",
            "contactEmail": "carmelafranco@example.com",
            "location": {
                "city": "New York",
                "state": "NY"
            }
        },
        {
            "id": "671bc00728ef583c0dba19a2",
            "name": "City Symphonic Chorus",
            "description": "Irure tempor culpa qui nostrud adipisicing aliqua aute ipsum.",
            "contactEmail": "consuelokaufman@example.com",
            "location": {
                "city": "Madison",
                "state": "WI"
            }
        },
        {
            "id": "671bc007cc627344cb263f94",
            "name": "Community Choir",
            "description": "Occaecat deserunt ut proident quis exercitation.",
            "contactEmail": "rhondamullen@example.com",
            "location": {
                "city": "New York",
                "state": "NY"
            }
        },
        {
            "id": "671bc00741c7d3fbe67156d8",
            "name": "Chamber Singers",
            "description": "Ullamco nulla amet fugiat do.",
            "contactEmail": "junewilkinson@example.com",
            "location": {
                "city": "Charlotte",
                "state": "NC"
            }
        }
    ]
}